{
  "country_nodes": {
    "AUSTRALIA": { "short_label": "Australia", "lat": -35.2809, "lon": 149.13 },
    "BOLIVIA": { "short_label": "Bolivia", "lat": -16.4897, "lon": -68.1193 },
    "BRAZIL": { "short_label": "Brazil", "lat": -15.7939, "lon": -47.8828 },
    "CHILE": { "short_label": "Chile", "lat": -33.4489, "lon": -70.6693 },
    "CHINA, PEOPLES REPUBLIC OF": { "short_label": "China", "lat": 39.9042, "lon": 116.4074 },
    "COLOMBIA": { "short_label": "Colombia", "lat": 4.711, "lon": -74.0721 },
    "COSTA RICA": { "short_label": "Costa Rica", "lat": 9.9281, "lon": -84.0907 },
    "DOMINICAN REPUBLIC": { "short_label": "Dominican Rep.", "lat": 18.4861, "lon": -69.9312 },
    "ECUADOR": { "short_label": "Ecuador", "lat": -0.1807, "lon": -78.4678 },
    "EL SALVADOR": { "short_label": "El Salvador", "lat": 13.6929, "lon": -89.2182 },
    "GERMANY": { "short_label": "Germany", "lat": 52.52, "lon": 13.405 },
    "GUATEMALA": { "short_label": "Guatemala", "lat": 14.6349, "lon": -90.5069 },
    "HONDURAS": { "short_label": "Honduras", "lat": 14.0723, "lon": -87.1921 },
    "IRAQ": { "short_label": "Iraq", "lat": 33.3152, "lon": 44.3661 },
    "ITALY": { "short_label": "Italy", "lat": 41.9028, "lon": 12.4964 },
    "JAMAICA": { "short_label": "Jamaica", "lat": 18.0179, "lon": -76.8099 },
    "JORDAN": { "short_label": "Jordan", "lat": 31.9539, "lon": 35.9106 },
    "KENYA": { "short_label": "Kenya", "lat": -1.2921, "lon": 36.8219 },
    "LAOS": { "short_label": "Laos", "lat": 17.9757, "lon": 102.6331 },
    "LIBERIA": { "short_label": "Liberia", "lat": 6.3004, "lon": -10.7969 },
    "MALI": { "short_label": "Mali", "lat": 12.6392, "lon": -8.0029 },
    "MEXICO": { "short_label": "Mexico", "lat": 19.4326, "lon": -99.1332 },
    "MICRONESIA, FEDERATED STATES OF": { "short_label": "Micronesia", "lat": 6.9248, "lon": 158.161 },
    "NICARAGUA": { "short_label": "Nicaragua", "lat": 12.114, "lon": -86.2362 },
    "PERU": { "short_label": "Peru", "lat": -12.0464, "lon": -77.0428 },
    "ROMANIA": { "short_label": "Romania", "lat": 44.4268, "lon": 26.1025 },
    "RWANDA": { "short_label": "Rwanda", "lat": -1.9441, "lon": 30.0619 },
    "SAUDI ARABIA": { "short_label": "Saudi Arabia", "lat": 24.7136, "lon": 46.6753 },
    "SPAIN": { "short_label": "Spain", "lat": 40.4168, "lon": -3.7038 },
    "TURKIYE": { "short_label": "Turkiye", "lat": 39.9334, "lon": 32.8597 },
    "UNITED KINGDOM": { "short_label": "United Kingdom", "lat": 51.5074, "lon": -0.1278 },
    "UZBEKISTAN": { "short_label": "Uzbekistan", "lat": 41.2995, "lon": 69.2401 },
    "VENEZUELA": { "short_label": "Venezuela", "lat": 10.4806, "lon": -66.9036 },
    "VIETNAM": { "short_label": "Vietnam", "lat": 21.0285, "lon": 105.8542 }
  },
  "birth_regions": {
    "Mexico": ["MEXICO"],
    "Central America": ["BELIZE", "COSTA RICA", "EL SALVADOR", "GUATEMALA", "HONDURAS", "NICARAGUA", "PANAMA"],
    "Caribbean": ["BAHAMAS", "BARBADOS", "CUBA", "DOMINICAN REPUBLIC", "HAITI", "JAMAICA", "TRINIDAD AND TOBAGO"],
    "South America": ["ARGENTINA", "BOLIVIA", "BRAZIL", "CHILE", "COLOMBIA", "ECUADOR", "GUYANA", "PARAGUAY", "PERU", "SURINAME", "URUGUAY", "VENEZUELA"],
    "North America": ["CANADA", "UNITED STATES"],
    "Europe": [
      "ALBANIA",
      "AUSTRIA",
      "BELARUS",
      "BELGIUM",
      "BOSNIA AND HERZEGOVINA",
      "BULGARIA",
      "CROATIA",
      "CZECH REPUBLIC",
      "DENMARK",
      "FINLAND",
      "FRANCE",
      "GERMANY",
      "GREECE",
      "HUNGARY",
      "IRELAND",
      "ITALY",
      "KOSOVO",
      "MOLDOVA",
      "MONTENEGRO",
      "NETHERLANDS",
      "NORWAY",
      "POLAND",
      "PORTUGAL",
      "ROMANIA",
      "RUSSIA",
      "SERBIA",
      "SLOVAKIA",
      "SLOVENIA",
      "SPAIN",
      "SWEDEN",
      "SWITZERLAND",
      "UKRAINE",
      "UNITED KINGDOM",
      "YUGOSLAVIA"
    ],
    "Africa": [
      "ALGERIA",
      "CHAD",
      "DEM REP OF THE CONGO",
      "EGYPT",
      "EQUATORIAL GUINEA",
      "ETHIOPIA",
      "KENYA",
      "LIBERIA",
      "MALI",
      "MOROCCO",
      "NIGERIA",
      "RWANDA",
      "SUDAN",
      "TUNISIA"
    ],
    "Asia": [
      "AFGHANISTAN",
      "ARMENIA",
      "AZERBAIJAN",
      "BANGLADESH",
      "BHUTAN",
      "BRUNEI",
      "CAMBODIA",
      "CHINA, PEOPLES REPUBLIC OF",
      "GEORGIA",
      "INDIA",
      "INDONESIA",
      "IRAN",
      "IRAQ",
      "ISRAEL",
      "JAPAN",
      "JORDAN",
      "KAZAKHSTAN",
      "KYRGYZSTAN",
      "LAOS",
      "LEBANON",
      "MALAYSIA",
      "MONGOLIA",
      "MYANMAR",
      "NEPAL",
      "PAKISTAN",
      "PHILIPPINES",
      "SAUDI ARABIA",
      "SINGAPORE",
      "SOUTH KOREA",
      "SRI LANKA",
      "SYRIA",
      "TAIWAN",
      "TAJIKISTAN",
      "THAILAND",
      "TURKIYE",
      "UZBEKISTAN",
      "VIETNAM",
      "YEMEN"
    ],
    "Oceania": ["AUSTRALIA", "FIJI", "MICRONESIA, FEDERATED STATES OF", "NEW ZEALAND", "PAPUA NEW GUINEA", "SAMOA", "TONGA", "VANUATU"]
  }
}
